{
  "dailygameschedule": {
    "lastUpdatedOn": "2016-09-19 8:34:24 AM",
    "gameentry": [
      {
        "date": "2016-09-11",
        "time": "1:00PM",
        "awayTeam": {
          "ID": "62",
          "City": "Green Bay",
          "Name": "Packers",
          "Abbreviation": "GB"
        },
        "homeTeam": {
          "ID": "66",
          "City": "Jacksonville",
          "Name": "Jaguars",
          "Abbreviation": "JAX"
        },
        "location": "EverBank Field"
      },
      {
        "date": "2016-09-11",
        "time": "1:00PM",
        "awayTeam": {
          "ID": "48",
          "City": "Buffalo",
          "Name": "Bills",
          "Abbreviation": "BUF"
        },
        "homeTeam": {
          "ID": "56",
          "City": "Baltimore",
          "Name": "Ravens",
          "Abbreviation": "BAL"
        },
        "location": "M&T Bank Stadium"
      },
      {
        "date": "2016-09-11",
        "time": "1:00PM",
        "awayTeam": {
          "ID": "60",
          "City": "Chicago",
          "Name": "Bears",
          "Abbreviation": "CHI"
        },
        "homeTeam": {
          "ID": "64",
          "City": "Houston",
          "Name": "Texans",
          "Abbreviation": "HOU"
        },
        "location": "NRG Stadium"
      },
      {
        "date": "2016-09-11",
        "time": "1:00PM",
        "awayTeam": {
          "ID": "58",
          "City": "Cleveland",
          "Name": "Browns",
          "Abbreviation": "CLE"
        },
        "homeTeam": {
          "ID": "54",
          "City": "Philadelphia",
          "Name": "Eagles",
          "Abbreviation": "PHI"
        },
        "location": "Lincoln Financial Field"
      },
      {
        "date": "2016-09-11",
        "time": "1:00PM",
        "awayTeam": {
          "ID": "71",
          "City": "Tampa Bay",
          "Name": "Buccaneers",
          "Abbreviation": "TB"
        },
        "homeTeam": {
          "ID": "68",
          "City": "Atlanta",
          "Name": "Falcons",
          "Abbreviation": "ATL"
        },
        "location": "Georgia Dome"
      },
      {
        "date": "2016-09-11",
        "time": "1:00PM",
        "awayTeam": {
          "ID": "63",
          "City": "Minnesota",
          "Name": "Vikings",
          "Abbreviation": "MIN"
        },
        "homeTeam": {
          "ID": "67",
          "City": "Tennessee",
          "Name": "Titans",
          "Abbreviation": "TEN"
        },
        "location": "Nissan Stadium"
      },
      {
        "date": "2016-09-11",
        "time": "1:00PM",
        "awayTeam": {
          "ID": "57",
          "City": "Cincinnati",
          "Name": "Bengals",
          "Abbreviation": "CIN"
        },
        "homeTeam": {
          "ID": "51",
          "City": "New York",
          "Name": "Jets",
          "Abbreviation": "NYJ"
        },
        "location": "MetLife Stadium"
      },
      {
        "date": "2016-09-11",
        "time": "1:00PM",
        "awayTeam": {
          "ID": "74",
          "City": "Oakland",
          "Name": "Raiders",
          "Abbreviation": "OAK"
        },
        "homeTeam": {
          "ID": "70",
          "City": "New Orleans",
          "Name": "Saints",
          "Abbreviation": "NO"
        },
        "location": "Mercedes-Benz Stadium"
      },
      {
        "date": "2016-09-11",
        "time": "1:00PM",
        "awayTeam": {
          "ID": "75",
          "City": "San Diego",
          "Name": "Chargers",
          "Abbreviation": "SD"
        },
        "homeTeam": {
          "ID": "73",
          "City": "Kansas City",
          "Name": "Chiefs",
          "Abbreviation": "KC"
        },
        "location": "Arrowhead Stadium"
      },
      {
        "date": "2016-09-11",
        "time": "4:05PM",
        "awayTeam": {
          "ID": "49",
          "City": "Miami",
          "Name": "Dolphins",
          "Abbreviation": "MIA"
        },
        "homeTeam": {
          "ID": "79",
          "City": "Seattle",
          "Name": "Seahawks",
          "Abbreviation": "SEA"
        },
        "location": "CenturyLink Field"
      },
      {
        "date": "2016-09-11",
        "time": "4:25PM",
        "awayTeam": {
          "ID": "53",
          "City": "New York",
          "Name": "Giants",
          "Abbreviation": "NYG"
        },
        "homeTeam": {
          "ID": "52",
          "City": "Dallas",
          "Name": "Cowboys",
          "Abbreviation": "DAL"
        },
        "location": "AT&T Stadium"
      },
      {
        "date": "2016-09-11",
        "time": "4:30PM",
        "awayTeam": {
          "ID": "61",
          "City": "Detroit",
          "Name": "Lions",
          "Abbreviation": "DET"
        },
        "homeTeam": {
          "ID": "65",
          "City": "Indianapolis",
          "Name": "Colts",
          "Abbreviation": "IND"
        },
        "location": "Lucas Oil Stadium"
      },
      {
        "date": "2016-09-11",
        "time": "8:30PM",
        "awayTeam": {
          "ID": "50",
          "City": "New England",
          "Name": "Patriots",
          "Abbreviation": "NE"
        },
        "homeTeam": {
          "ID": "76",
          "City": "Arizona",
          "Name": "Cardinals",
          "Abbreviation": "ARI"
        },
        "location": "University of Phoenix Stadium"
      }
    ]
  }
}