{"fullgameschedule":{"lastUpdatedOn":"2018-01-02 3:11:23 PM","gameentry":[{"id":"43416","week":"18","scheduleStatus":"Normal","originalDate":null,"originalTime":null,"delayedOrPostponedReason":null,"date":"2018-01-06","time":"4:35PM","awayTeam":{"ID":"67","City":"Tennessee","Name":"Titans","Abbreviation":"TEN"},"homeTeam":{"ID":"73","City":"Kansas City","Name":"Chiefs","Abbreviation":"KC"},"location":"Arrowhead Stadium"},{"id":"43417","week":"18","scheduleStatus":"Normal","originalDate":null,"originalTime":null,"delayedOrPostponedReason":null,"date":"2018-01-06","time":"8:15PM","awayTeam":{"ID":"68","City":"Atlanta","Name":"Falcons","Abbreviation":"ATL"},"homeTeam":{"ID":"77","City":"Los Angeles","Name":"Rams","Abbreviation":"LA"},"location":"Los Angeles Memorial Coliseum"},{"id":"43418","week":"18","scheduleStatus":"Normal","originalDate":null,"originalTime":null,"delayedOrPostponedReason":null,"date":"2018-01-07","time":"1:05PM","awayTeam":{"ID":"48","City":"Buffalo","Name":"Bills","Abbreviation":"BUF"},"homeTeam":{"ID":"66","City":"Jacksonville","Name":"Jaguars","Abbreviation":"JAX"},"location":"EverBank Field"},{"id":"43419","week":"18","scheduleStatus":"Normal","originalDate":null,"originalTime":null,"delayedOrPostponedReason":null,"date":"2018-01-07","time":"4:40PM","awayTeam":{"ID":"69","City":"Carolina","Name":"Panthers","Abbreviation":"CAR"},"homeTeam":{"ID":"70","City":"New Orleans","Name":"Saints","Abbreviation":"NO"},"location":"Mercedes-Benz Stadium"}]}}